[
  {
    "id": "0001",
    "key": "1",
    "startPoint": {
      "coords": {
        "lat": "55.75583",
        "lon": "37.61778"
      },
      "district": "Центральный",
      "name": "Москва",
      "population": 12655050,
      "subject": "Москва"
    },
    "endPoint": {
      "coords": {
        "lat": "59.95",
        "lon": "30.31667"
      },
      "district": "Северо-Западный",
      "name": "Санкт-Петербург",
      "population": 5384342,
      "subject": "Санкт-Петербург"
    }
  },
  {
    "id": "0002",
    "key": "2",
    "startPoint": {
      "coords": {
        "lat": "44.86667",
        "lon": "38.16667"
      },
      "district": "Южный",
      "name": "Абинск",
      "population": 34926,
      "subject": "Краснодарский край"
    },
    "endPoint": {
      "coords": {
        "lat": "51.86667",
        "lon": "45"
      },
      "district": "Приволжский",
      "name": "Аткарск",
      "population": 25620,
      "subject": "Саратовская область"
    }
  },
  {
    "id": "0003",
    "key": "3",
    "startPoint": {
      "coords": {
        "lat": "61.79611",
        "lon": "34.34917"
      },
      "district": "Северо-Западный",
      "name": "Петрозаводск",
      "population": 263540,
      "subject": "Карелия"
    },
    "endPoint": {
      "coords": {
        "lat": "52.31667",
        "lon": "45.38333"
      },
      "district": "Приволжский",
      "name": "Петровск",
      "population": 31158,
      "subject": "Саратовская область"
    }
  },
  {
    "id": "0004",
    "key": "4",
    "startPoint": {
      "coords": {
        "lat": "58.6",
        "lon": "35.81667"
      },
      "district": "Северо-Западный",
      "name": "Пестово",
      "population": 15911,
      "subject": "Новгородская область"
    },
    "endPoint": {
      "coords": {
        "lat": "51.86667",
        "lon": "45"
      },
      "district": "Приволжский",
      "name": "Аткарск",
      "population": 25620,
      "subject": "Саратовская область"
    }
  },
  {
    "id": "0005",
    "key": "5",
    "startPoint": {
      "coords": {
        "lat": "51.28333",
        "lon": "108.83333"
      },
      "district": "Сибирский",
      "name": "Петровск-Забайкальский",
      "population": 18555,
      "subject": "Забайкальский край"
    },
    "endPoint": {
      "coords": {
        "lat": "50.13333",
        "lon": "45.21667"
      },
      "district": "Южный",
      "name": "Петров Вал",
      "population": 13264,
      "subject": "Волгоградская область"
    }
  },
  {
    "id": "0006",
    "key": "6",
    "startPoint": {
      "coords": {
        "lat": "58.6",
        "lon": "35.81667"
      },
      "district": "Северо-Западный",
      "name": "Пестово",
      "population": 15911,
      "subject": "Новгородская область"
    },
    "endPoint": {
      "coords": {
        "lat": "55.93333",
        "lon": "39.46667"
      },
      "district": "Центральный",
      "name": "Петушки",
      "population": 15167,
      "subject": "Владимирская область"
    }
  }
]
